[

    {"name":"St. God's Hospital", "locations":[{"accessibility" : [ "elevator", "restroom" ], "address_attributes" : { "city" : "Sacramento", "state" : "CA", "street" : "2714 N Street", "zip" : "95816" }, "contacts_attributes" : [ { "name" : "Literally D'Boss", "title" : "Director" } ], "latitude" : 38.569496, "longitude": -121.471978, "description" : "This is a description", "emails" : [ "eml@example.org" ], "faxes_attributes" : [ { "number" : "911", "department" : "CalFresh" } ], "hours" : "Monday-Friday 10am-5pm", "languages" : null, "name" : "Admin Test Location", "phones_attributes" : [ { "number" : "7035551212", "vanity_number" : "703555-ABCD", "extension" : "x1223", "department" : "CalFresh" } ], "short_desc" : "This is a short description", "transportation" : "SAMTRANS stops within 1/2 mile.", "urls" : [ "http://codeforamerica.org" ], "services_attributes":[{"name":"Service for Admin Test Location","description":"just a test service","service_areas":["Sacramento County"]}] }] },
    {"name":"Literal Food Pantry", "locations":[{"accessibility" : [ "elevator", "restroom" ], "address_attributes" : { "city" : "Sacramento", "state" : "CA", "street" : "6000 J Street", "zip" : "95819" }, "contacts_attributes" : [ { "name" : "Literally D'Boss", "title" : "Director" } ], "latitude" : 38.559959, "longitude": -121.420625, "description" : "This is a school", "emails" : [ "eml@example.org" ], "faxes_attributes" : [ { "number" : "911", "department" : "CalFresh" } ], "hours" : "Monday-Friday 10am-5pm", "languages" : null, "name" : "Admin Test Location", "phones_attributes" : [ { "number" : "7035551212", "vanity_number" : "703555-ABCD", "extension" : "x1223", "department" : "CalFresh" } ], "short_desc" : "This is a short description", "transportation" : "SAMTRANS stops within 1/2 mile.", "urls" : [ "http://codeforamerica.org" ], "services_attributes":[{"name":"Service for Admin Test Location","description":"just a test service","service_areas":["Sacramento County"]}] }] },
    {"name":"Super Volunteers", "locations":[{"accessibility" : [ "elevator", "restroom" ], "address_attributes" : { "city" : "Sacramento", "state" : "CA", "street" : "1562 Response Road", "zip" : "95815" }, "contacts_attributes" : [ { "name" : "Literally D'Boss", "title" : "Director" } ], "latitude" : 38.599085, "longitude": -121.434066, "description" : "This is a description", "emails" : [ "eml@example.org" ], "faxes_attributes" : [ { "number" : "911", "department" : "CalFresh" } ], "hours" : "Monday-Friday 10am-5pm", "languages" : null, "name" : "Admin Test Location", "phones_attributes" : [ { "number" : "7035551212", "vanity_number" : "703555-ABCD", "extension" : "x1223", "department" : "CalFresh" } ], "short_desc" : "This is a short description", "transportation" : "SAMTRANS stops within 1/2 mile.", "urls" : [ "http://codeforamerica.org" ], "services_attributes":[{"name":"Service for Admin Test Location","description":"just a test service","service_areas":["Sacramento County"]}] }] },
    {"name":"Loaves and Fishes", "locations":[{"accessibility" : [ "elevator", "restroom" ], "address_attributes" : { "city" : "Sacramento", "state" : "CA", "street" : "1351 North C Street", "zip" : "95811" }, "contacts_attributes" : [ { "name" : "Literally D'Boss", "title" : "Director" } ], "latitude" : 38.591044, "longitude": -121.482254, "description" : "This is a description", "emails" : [ "eml@example.org" ], "faxes_attributes" : [ { "number" : "911", "department" : "CalFresh" } ], "hours" : "Monday-Friday 10am-5pm", "languages" : null, "name" : "Admin Test Location", "phones_attributes" : [ { "number" : "7035551212", "vanity_number" : "703555-ABCD", "extension" : "x1223", "department" : "CalFresh" } ], "short_desc" : "This is a short description", "transportation" : "SAMTRANS stops within 1/2 mile.", "urls" : [ "http://codeforamerica.org" ], "services_attributes":[{"name":"Service for Admin Test Location","description":"just a test service","service_areas":["Sacramento County"]}] }] }

]
